[{"affiliate":"yes","name":"Aroma Indian Restaurant","address":"1919 I Street NW","address2":"","storeID":"203238","chainID":null,"totalDealsInThisStore":"1","homepage":null,"phone":"202.833.4700","state":"DC","city":"Washington","ZIP":"20006","URL":"http:\/\/www.8coupons.com\/apiout\/showdeal\/deal\/3822397\/1698021\/aff","storeURL":"http:\/\/www.8coupons.com\/discounts\/aroma-indian-restaurant-washington-20006","dealSource":"restaurant.com","user":"Restaurant.com","userID":"54727","ID":"3822397","dealTitle":"$25 Gift Certificate for $10.00","disclaimer":"Minimum purchase of $50. 20% Gratuity added prior to discount. Valid for Dinner , Dine In ONLY. Excludes: Alcohol. Present prior to ordering. Valid at this location only. Valid with parties of 2 or more.","dealinfo":"Aroma Indian Restaurant is located in the heart of the Washington, DC and brings you the flavors of India in its finest forms.","expirationDate":"2012-08-30","postDate":"2012-08-27 20:14:19","showImage":null,"showLogo":"http:\/\/www.8coupons.com\/partners\/logo\/small\/restaurant.png","up":"1","down":"0","DealTypeID":"1","categoryID":"1","subcategoryID":"23","lat":"38.9015","lon":"-77.0444","distance":"0.322551382845074","dealOriginalPrice":null,"dealPrice":null,"dealSavings":"","dealDiscountPercent":null},
{"affiliate":"yes","name":"Hudson Restaurant & Lounge","address":"2030 M St NW","address2":"","storeID":"204814","chainID":null,"totalDealsInThisStore":"2","homepage":null,"phone":"202.872.8700","state":"DC","city":"Washington","ZIP":"20036","URL":"http:\/\/www.8coupons.com\/apiout\/showdeal\/deal\/7592197\/1698021\/aff","storeURL":"http:\/\/www.8coupons.com\/discounts\/hudson-restaurant-lounge-washington-20036","dealSource":"savored.com","user":"savored","userID":"66691","ID":"7592197","dealTitle":"30% OFF ALL FOOD & DRINK","disclaimer":"You can change or cancel your reservation up until 2 hours before your scheduled reservation time.","dealinfo":"Members reserve these tables through Savored for $10 per reservation.  A 30% discount is automatically applied to your bill. No coupons or fine print  only guaranteed savings.  If your partys savings dont exceed your booking fee, well refund the price of your reservation.","expirationDate":"2012-09-11","postDate":"2012-08-28 04:09:30","showImage":"http:\/\/s3.amazonaws.com\/savored.com\/02059981-8c7a-4bf0-a56a-63c19ec4a597.png","showLogo":"http:\/\/www.8coupons.com\/partners\/logo\/small\/savored.png","up":null,"down":null,"DealTypeID":"2","categoryID":"1","subcategoryID":"2","lat":"38.9054","lon":"-77.0463","distance":"0.353418531990584","dealOriginalPrice":null,"dealPrice":null,"dealSavings":"","dealDiscountPercent":null},
{"affiliate":"yes","name":"Rivers at the Watergate","address":"600 New Hamsphire Avenue, NW","address2":"","storeID":"2333779","chainID":null,"totalDealsInThisStore":"1","homepage":"","phone":"202.333.1600","state":"DC","city":"Washington","ZIP":"20037","URL":"http:\/\/www.8coupons.com\/apiout\/showdeal\/deal\/6268993\/1698021\/aff","storeURL":"http:\/\/www.8coupons.com\/discounts\/rivers-at-the-watergate-washington-20037","dealSource":"restaurant.com","user":"Restaurant.com","userID":"54727","ID":"6268993","dealTitle":"$10 Gift Certificate for $4.00","disclaimer":"Minimum purchase of $20. 18% Gratuity added prior to discount. Valid for Dine In ONLY. Excludes: Holidays\/Special Events, Other Offers\/Promotions. Present prior to ordering. Not Valid with other discount offers or promotions. Not Valid Pre-Theatre.","dealinfo":"An Elegant Dining Establishment located at the Watergate... directly across from the Kennedy Center.","expirationDate":"2012-08-30","postDate":"2012-08-27 23:21:24","showImage":null,"showLogo":"http:\/\/www.8coupons.com\/partners\/logo\/small\/restaurant.png","up":null,"down":null,"DealTypeID":"1","categoryID":"1","subcategoryID":"11","lat":"38.8976","lon":"-77.0548","distance":"0.353610312378575","dealOriginalPrice":"10","dealPrice":"5","dealSavings":"5","dealDiscountPercent":"50"},
{"affiliate":"yes","name":"Rivers at the Watergate","address":"600 New Hamsphire Avenue, NW","address2":"","storeID":"2333779","chainID":null,"totalDealsInThisStore":"1","homepage":"","phone":"202.333.1600","state":"DC","city":"Washington","ZIP":"20037","URL":"http:\/\/www.8coupons.com\/apiout\/showdeal\/deal\/6268995\/1698021\/aff","storeURL":"http:\/\/www.8coupons.com\/discounts\/rivers-at-the-watergate-washington-20037","dealSource":"restaurant.com","user":"Restaurant.com","userID":"54727","ID":"6268995","dealTitle":"$25 Gift Certificate for $10.00","disclaimer":"Minimum 2 entrees. 18% Gratuity added prior to discount. Valid for Dinner, Dine In ONLY. Excludes: Holidays\/Special Events, Other Offers\/Promotions. Present prior to ordering. Not Valid with other discount offers or promotions. NOT VALID PRE-THEATRE HOURS (please see hours for more details).","dealinfo":"An Elegant Dining Establishment located at the Watergate... directly across from the Kennedy Center.","expirationDate":"2012-08-31","postDate":"2012-08-28 06:31:32","showImage":null,"showLogo":"http:\/\/www.8coupons.com\/partners\/logo\/small\/restaurant.png","up":"1","down":"0","DealTypeID":"1","categoryID":"1","subcategoryID":"11","lat":"38.8976","lon":"-77.0548","distance":"0.353610312378575","dealOriginalPrice":"25","dealPrice":"10","dealSavings":"15","dealDiscountPercent":"60"},
{"affiliate":"yes","name":"Rivers at the Watergate","address":"600 New Hamsphire Avenue, NW","address2":"","storeID":"2333779","chainID":null,"totalDealsInThisStore":"1","homepage":"","phone":"202.333.1600","state":"DC","city":"Washington","ZIP":"20037","URL":"http:\/\/www.8coupons.com\/apiout\/showdeal\/deal\/6268997\/1698021\/aff","storeURL":"http:\/\/www.8coupons.com\/discounts\/rivers-at-the-watergate-washington-20037","dealSource":"restaurant.com","user":"Restaurant.com","userID":"54727","ID":"6268997","dealTitle":"$75 Gift Certificate for $30.00","disclaimer":"Minimum purchase of $150. 18% Gratuity added prior to discount. Valid for Dinner, Dine In ONLY. Excludes: Holidays\/Special Events, Other Offers\/Promotions. Present prior to ordering. Not Valid with other discount offers or promotions. Not Valid Pre-Theatre.","dealinfo":"An Elegant Dining Establishment located at the Watergate... directly across from the Kennedy Center.","expirationDate":"2012-08-30","postDate":"2012-08-27 23:21:24","showImage":null,"showLogo":"http:\/\/www.8coupons.com\/partners\/logo\/small\/restaurant.png","up":"1","down":"0","DealTypeID":"1","categoryID":"1","subcategoryID":"11","lat":"38.8976","lon":"-77.0548","distance":"0.353610312378575","dealOriginalPrice":"75","dealPrice":"30","dealSavings":"45","dealDiscountPercent":"60"},
{"affiliate":"yes","name":"Rivers at the Watergate","address":"600 New Hamsphire Avenue, NW","address2":"","storeID":"2333779","chainID":null,"totalDealsInThisStore":"1","homepage":"","phone":"202.333.1600","state":"DC","city":"Washington","ZIP":"20037","URL":"http:\/\/www.8coupons.com\/apiout\/showdeal\/deal\/8494415\/1698021\/aff","storeURL":"http:\/\/www.8coupons.com\/discounts\/rivers-at-the-watergate-washington-20037","dealSource":"restaurant.com","user":"Restaurant.com","userID":"54727","ID":"8494415","dealTitle":"$15 Gift Certificate for $6.00","disclaimer":"Minimum purchase of $22.50. Minimum 2 entrees. 18% Gratuity added prior to discount. Valid for Dinner, Dine In ONLY. Excludes: Holiday\/Special Events, Other Offers\/Promotions. Present prior to ordering. Not Valid with other discount offers or promotions. NOT VALID PRE-THEATRE HOURS (please see hours for more details).","dealinfo":"An Elegant Dining Establishment located at the Watergate... directly across from the Kennedy Center.","expirationDate":"2012-08-31","postDate":"2012-08-28 06:31:32","showImage":null,"showLogo":"http:\/\/www.8coupons.com\/partners\/logo\/small\/restaurant.png","up":null,"down":null,"DealTypeID":"1","categoryID":"1","subcategoryID":"11","lat":"38.8976","lon":"-77.0548","distance":"0.353610312378575","dealOriginalPrice":"15","dealPrice":"6","dealSavings":"9","dealDiscountPercent":"60"},
{"affiliate":"yes","name":"ABC CHEAP LOCKSMITH AND LOCKS SERVICE","address":"912 New Hampshire Ave NW","address2":"","storeID":"2500243","chainID":null,"totalDealsInThisStore":"1","homepage":null,"phone":"888.601.9805","state":"DC","city":"Washington","ZIP":"20037","URL":"http:\/\/www.8coupons.com\/discounts\/abc-cheap-locksmith-and-locks-service-washington-20037","storeURL":"http:\/\/www.8coupons.com\/discounts\/abc-cheap-locksmith-and-locks-service-washington-20037","dealSource":"citysearch.com","user":"Citysearch","userID":"64705","ID":"7068351","dealTitle":"10% OFF Locksmith Services for Senior Citizens & Students","disclaimer":"","dealinfo":"Senior Citizens & Students only.","expirationDate":null,"postDate":"2011-12-18 07:01:26","showImage":null,"showLogo":"http:\/\/www.8coupons.com\/partners\/logo\/small\/Citysearch.png","up":null,"down":null,"DealTypeID":null,"categoryID":"4","subcategoryID":"70","lat":"38.9011","lon":"-77.0517","distance":"0.0727453286729484","dealOriginalPrice":null,"dealPrice":null,"dealSavings":"","dealDiscountPercent":null},
{"affiliate":"yes","name":"ABC CHEAP LOCKSMITH AND LOCKS SERVICE","address":"912 New Hampshire Ave NW","address2":"","storeID":"2500243","chainID":null,"totalDealsInThisStore":"1","homepage":null,"phone":"888.601.9805","state":"DC","city":"Washington","ZIP":"20037","URL":"http:\/\/www.8coupons.com\/apiout\/showdeal\/deal\/7068353\/1698021\/aff","storeURL":"http:\/\/www.8coupons.com\/discounts\/abc-cheap-locksmith-and-locks-service-washington-20037","dealSource":"citysearch.com","user":"Citysearch","userID":"64705","ID":"7068353","dealTitle":"$29 Service Call for Any Locksmith Call","disclaimer":"","dealinfo":"Mention this ad to receive the offer.","expirationDate":null,"postDate":"2011-12-18 07:01:26","showImage":null,"showLogo":"http:\/\/www.8coupons.com\/partners\/logo\/small\/Citysearch.png","up":null,"down":null,"DealTypeID":null,"categoryID":"4","subcategoryID":"70","lat":"38.9011","lon":"-77.0517","distance":"0.0727453286729484","dealOriginalPrice":null,"dealPrice":null,"dealSavings":"","dealDiscountPercent":null},
{"affiliate":"yes","name":"ABC CHEAP LOCKSMITH AND LOCKS SERVICE","address":"912 New Hampshire Ave NW","address2":"","storeID":"2500243","chainID":null,"totalDealsInThisStore":"1","homepage":null,"phone":"888.601.9805","state":"DC","city":"Washington","ZIP":"20037","URL":"http:\/\/www.8coupons.com\/apiout\/showdeal\/deal\/7068355\/1698021\/aff","storeURL":"http:\/\/www.8coupons.com\/discounts\/abc-cheap-locksmith-and-locks-service-washington-20037","dealSource":"citysearch.com","user":"Citysearch","userID":"64705","ID":"7068355","dealTitle":"10% OFF Auto Computer Diagnostics for any Auto Repair","disclaimer":"","dealinfo":"Coupon required.","expirationDate":null,"postDate":"2011-12-18 07:01:26","showImage":null,"showLogo":"http:\/\/www.8coupons.com\/partners\/logo\/small\/Citysearch.png","up":null,"down":null,"DealTypeID":null,"categoryID":"4","subcategoryID":"70","lat":"38.9011","lon":"-77.0517","distance":"0.0727453286729484","dealOriginalPrice":null,"dealPrice":null,"dealSavings":"","dealDiscountPercent":null},
{"affiliate":"yes","name":"ABC CHEAP LOCKSMITH AND LOCKS SERVICE","address":"912 New Hampshire Ave NW","address2":"","storeID":"2500243","chainID":null,"totalDealsInThisStore":"1","homepage":null,"phone":"888.601.9805","state":"DC","city":"Washington","ZIP":"20037","URL":"http:\/\/www.8coupons.com\/apiout\/showdeal\/deal\/7068359\/1698021\/aff","storeURL":"http:\/\/www.8coupons.com\/discounts\/abc-cheap-locksmith-and-locks-service-washington-20037","dealSource":"citysearch.com","user":"Citysearch","userID":"64705","ID":"7068359","dealTitle":"FREE Towing with Any Collision Repair at Our Shop!","disclaimer":"","dealinfo":"Mention this ad to receive the offer.","expirationDate":null,"postDate":"2011-12-18 07:01:26","showImage":null,"showLogo":"http:\/\/www.8coupons.com\/partners\/logo\/small\/Citysearch.png","up":null,"down":null,"DealTypeID":null,"categoryID":"4","subcategoryID":"70","lat":"38.9011","lon":"-77.0517","distance":"0.0727453286729484","dealOriginalPrice":null,"dealPrice":null,"dealSavings":"","dealDiscountPercent":null},
{"affiliate":"yes","name":"Yousefi Washington Clinic","address":"3 Washington Cir","address2":"","storeID":"2352001","chainID":null,"totalDealsInThisStore":"1","homepage":"","phone":"202.785.9474","state":"DC","city":"Washington","ZIP":"20037","URL":"http:\/\/www.8coupons.com\/apiout\/showdeal\/deal\/6364191\/1698021\/aff","storeURL":"http:\/\/www.8coupons.com\/discounts\/yousefi-washington-clinic-20037","dealSource":"yelp.com","user":"yelp","userID":"733207","ID":"6364191","dealTitle":"$75 for $100 Certificate","disclaimer":"","dealinfo":"A voucher redeemable for $100 at Yousefi Washington Clinic. Print out your voucher, or redeem on your phone with the  Yelp app .","expirationDate":"2012-08-31","postDate":"2012-08-28 04:36:15","showImage":"http:\/\/s3-media1.ak.yelpcdn.com\/bphoto\/rYLPPDuFu7WEo-4u9iCf_w\/l.jpg","showLogo":"http:\/\/www.8coupons.com\/partners\/logo\/small\/yelp.png","up":"1","down":"0","DealTypeID":"1","categoryID":"4","subcategoryID":"69","lat":"38.9032","lon":"-77.0503","distance":"0.124369095865405","dealOriginalPrice":"100","dealPrice":"75","dealSavings":"25","dealDiscountPercent":"25"},
{"affiliate":"yes","name":"A-A-ALWAYS AVAILABLE LOCKSMITH","address":"2142 Pennsylvania Ave NW","address2":"","storeID":"2606869","chainID":null,"totalDealsInThisStore":"1","homepage":null,"phone":"202.683.9753","state":"DC","city":"Washington","ZIP":"20037","URL":"http:\/\/www.8coupons.com\/apiout\/showdeal\/deal\/7762457\/1698021\/aff","storeURL":"http:\/\/www.8coupons.com\/discounts\/a-a-always-available-locksmith-washington-20037","dealSource":"citysearch.com","user":"Citysearch","userID":"64705","ID":"7762457","dealTitle":"$29 Service Call for Any Locksmith Call","disclaimer":"","dealinfo":"Mention this ad to receive the offer.","expirationDate":null,"postDate":"2012-03-12 09:01:25","showImage":null,"showLogo":"http:\/\/www.8coupons.com\/partners\/logo\/small\/Citysearch.png","up":null,"down":null,"DealTypeID":null,"categoryID":"4","subcategoryID":"70","lat":"38.9016","lon":"-77.048","distance":"0.129979542619264","dealOriginalPrice":null,"dealPrice":null,"dealSavings":"","dealDiscountPercent":null},
{"affiliate":"yes","name":"A-A-ALWAYS AVAILABLE LOCKSMITH","address":"2142 Pennsylvania Ave NW","address2":"","storeID":"2606869","chainID":null,"totalDealsInThisStore":"1","homepage":null,"phone":"202.683.9753","state":"DC","city":"Washington","ZIP":"20037","URL":"http:\/\/www.8coupons.com\/apiout\/showdeal\/deal\/7762459\/1698021\/aff","storeURL":"http:\/\/www.8coupons.com\/discounts\/a-a-always-available-locksmith-washington-20037","dealSource":"citysearch.com","user":"Citysearch","userID":"64705","ID":"7762459","dealTitle":"FREE Junk Car Removal - We Pay Top Dollar for Your Junk Car\/Truck\/Bus!","disclaimer":"","dealinfo":"Mention this ad to receive the offer.","expirationDate":null,"postDate":"2012-03-12 09:01:25","showImage":null,"showLogo":"http:\/\/www.8coupons.com\/partners\/logo\/small\/Citysearch.png","up":null,"down":null,"DealTypeID":null,"categoryID":"4","subcategoryID":"70","lat":"38.9016","lon":"-77.048","distance":"0.129979542619264","dealOriginalPrice":null,"dealPrice":null,"dealSavings":"","dealDiscountPercent":null},
{"affiliate":"yes","name":"The George Washington University Inn","address":"824 New Hampshire Ave NW","address2":"","storeID":"2341289","chainID":null,"totalDealsInThisStore":"1","homepage":null,"phone":"866.215.6641","state":"DC","city":"Washington","ZIP":"20037","URL":"http:\/\/www.8coupons.com\/apiout\/showdeal\/deal\/6302769\/1698021\/aff","storeURL":"http:\/\/www.8coupons.com\/discounts\/the-george-washington-university-inn-20037","dealSource":"citysearch.com","user":"Citysearch","userID":"64705","ID":"6302769","dealTitle":"Wine and Dine Package Special in DC!","disclaimer":"","dealinfo":"For Specials and Packages Info go to: http:\/\/tinyurl.com\/37hnyud","expirationDate":"0000-00-00","postDate":"2011-10-21 18:31:42","showImage":null,"showLogo":"http:\/\/www.8coupons.com\/partners\/logo\/small\/Citysearch.png","up":"1","down":"0","DealTypeID":null,"categoryID":"4","subcategoryID":"72","lat":"38.9002","lon":"-77.0531","distance":"0.167229848658456","dealOriginalPrice":null,"dealPrice":null,"dealSavings":"","dealDiscountPercent":null},
{"affiliate":"yes","name":"One Washington Circle Hotel","address":"824 New Hampshire Ave NW","address2":"","storeID":"2341289","chainID":null,"totalDealsInThisStore":"1","homepage":null,"phone":"866.215.6641","state":"DC","city":"Washington","ZIP":"20037","URL":"http:\/\/www.8coupons.com\/apiout\/showdeal\/deal\/6302775\/1698021\/aff","storeURL":"http:\/\/www.8coupons.com\/discounts\/the-george-washington-university-inn-20037","dealSource":"citysearch.com","user":"Citysearch","userID":"64705","ID":"6302775","dealTitle":"Be Parked!","disclaimer":"","dealinfo":"Subject to availability.","expirationDate":"0000-00-00","postDate":"2011-10-21 18:31:42","showImage":null,"showLogo":"http:\/\/www.8coupons.com\/partners\/logo\/small\/Citysearch.png","up":null,"down":null,"DealTypeID":null,"categoryID":"4","subcategoryID":"72","lat":"38.9002","lon":"-77.0531","distance":"0.167229848658456","dealOriginalPrice":null,"dealPrice":null,"dealSavings":"","dealDiscountPercent":null},
{"affiliate":"yes","name":"The Institute of Multidimensional Medicine Medical Spa","address":"2311 M Street NW\nSuite 301, Suite 202","address2":"","storeID":"2615327","chainID":null,"totalDealsInThisStore":"3","homepage":"","phone":"202.429.3783","state":"DC","city":"Washington","ZIP":"20037","URL":"http:\/\/www.8coupons.com\/apiout\/showdeal\/deal\/7857101\/1698021\/aff","storeURL":"http:\/\/www.8coupons.com\/discounts\/the-institute-of-multidimensional-medicine-medical-spa-washington-20037","dealSource":"wusa9.com","user":"DataSphere","userID":"309539","ID":"7857101","dealTitle":"Grand Opening Spa Day","disclaimer":"Treat yourself to head-to-toe rejuvenation.  Organic Body Scrub Moor Body Wrap Classic Body Massage Organic Facial Value $380 Special $295 With this coupon only. Not valid with any other offer or prior purchase.","dealinfo":"","expirationDate":"2012-09-07","postDate":"2012-03-29 05:49:35","showImage":"http:\/\/images.secondspace.com\/p\/8Coupons\/20\/44\/19\/72\/5\/33_15_125_125.jpg","showLogo":"http:\/\/www.8coupons.com\/partners\/logo\/small\/datasphere.jpg","up":null,"down":null,"DealTypeID":"1","categoryID":"4","subcategoryID":"69","lat":"38.9053","lon":"-77.0506","distance":"0.269700827987544","dealOriginalPrice":null,"dealPrice":null,"dealSavings":"","dealDiscountPercent":null},
{"affiliate":"yes","name":"The Institute of Multidimensional Medicine Medical Spa","address":"2311 M Street NW\nSuite 301, Suite 202","address2":"","storeID":"2615327","chainID":null,"totalDealsInThisStore":"3","homepage":"","phone":"202.429.3783","state":"DC","city":"Washington","ZIP":"20037","URL":"http:\/\/www.8coupons.com\/apiout\/showdeal\/deal\/7895657\/1698021\/aff","storeURL":"http:\/\/www.8coupons.com\/discounts\/the-institute-of-multidimensional-medicine-medical-spa-washington-20037","dealSource":"wusa9.com","user":"DataSphere","userID":"309539","ID":"7895657","dealTitle":"Two Hour Spa Escape","disclaimer":"Start off your escape with a steam shower and let us smooth away your skin with a body brushing session before your treatments. Classic Massage Organic Facial Value $235 Special $195 With this coupon only. Not valid with any other offer or prior purchase.","dealinfo":"","expirationDate":"2012-09-09","postDate":"2012-03-29 05:49:55","showImage":"http:\/\/images.secondspace.com\/p\/8Coupons\/20\/44\/19\/72\/5\/33_15_125_125.jpg","showLogo":"http:\/\/www.8coupons.com\/partners\/logo\/small\/datasphere.jpg","up":null,"down":null,"DealTypeID":"1","categoryID":"4","subcategoryID":"69","lat":"38.9053","lon":"-77.0506","distance":"0.269700827987544","dealOriginalPrice":null,"dealPrice":null,"dealSavings":"","dealDiscountPercent":null},
{"affiliate":"yes","name":"The Institute of Multidimensional Medicine Medical Spa","address":"2311 M Street NW\nSuite 301, Suite 202","address2":"","storeID":"2615327","chainID":null,"totalDealsInThisStore":"3","homepage":"","phone":"202.429.3783","state":"DC","city":"Washington","ZIP":"20037","URL":"http:\/\/www.8coupons.com\/apiout\/showdeal\/deal\/7895663\/1698021\/aff","storeURL":"http:\/\/www.8coupons.com\/discounts\/the-institute-of-multidimensional-medicine-medical-spa-washington-20037","dealSource":"wusa9.com","user":"DataSphere","userID":"309539","ID":"7895663","dealTitle":"$100 off Initial 1 hour consultation","disclaimer":"New patients get $100 off initial consultation with Sakiliba Mines MD New patients only. Additional fees for products and further treatment apply. Not valid with other offers.","dealinfo":"","expirationDate":"2012-09-09","postDate":"2012-03-28 16:18:21","showImage":"http:\/\/images.secondspace.com\/p\/8Coupons\/20\/44\/19\/72\/5\/33_15_125_125.jpg","showLogo":"http:\/\/www.8coupons.com\/partners\/logo\/small\/datasphere.jpg","up":null,"down":null,"DealTypeID":"1","categoryID":"4","subcategoryID":"69","lat":"38.9053","lon":"-77.0506","distance":"0.269700827987544","dealOriginalPrice":null,"dealPrice":null,"dealSavings":"","dealDiscountPercent":null},
{"affiliate":"yes","name":"24HR D.C LOCKSMITH & CAR KEYS","address":"2526 L St NW","address2":"","storeID":"2500257","chainID":null,"totalDealsInThisStore":"1","homepage":null,"phone":"888.701.9127","state":"DC","city":"Washington","ZIP":"20037","URL":"http:\/\/www.8coupons.com\/apiout\/showdeal\/deal\/7068421\/1698021\/aff","storeURL":"http:\/\/www.8coupons.com\/discounts\/24hr-d-c-locksmith-car-keys-washington-20037","dealSource":"citysearch.com","user":"Citysearch","userID":"64705","ID":"7068421","dealTitle":"10% OFF Locksmith Services for Senior Citizens & Students","disclaimer":"","dealinfo":"Senior Citizens & Students only.","expirationDate":"0000-00-00","postDate":"2011-12-18 07:01:40","showImage":null,"showLogo":"http:\/\/www.8coupons.com\/partners\/logo\/small\/Citysearch.png","up":null,"down":null,"DealTypeID":null,"categoryID":"4","subcategoryID":"70","lat":"38.9038","lon":"-77.0544","distance":"0.271535152224169","dealOriginalPrice":null,"dealPrice":null,"dealSavings":"","dealDiscountPercent":null},
{"affiliate":"yes","name":"A1 ALL EMERGENCY LOCKSMITH","address":"2311 M st NW","address2":"","storeID":"2500241","chainID":null,"totalDealsInThisStore":"1","homepage":null,"phone":"877.740.7286","state":"DC","city":"Washington","ZIP":"20037","URL":"http:\/\/www.8coupons.com\/apiout\/showdeal\/deal\/7068347\/1698021\/aff","storeURL":"http:\/\/www.8coupons.com\/discounts\/a1-all-emergency-locksmith-washington-20037","dealSource":"citysearch.com","user":"Citysearch","userID":"64705","ID":"7068347","dealTitle":"$29 Service Call for Any Locksmith Call","disclaimer":"","dealinfo":"Mention this ad to receive the offer.","expirationDate":null,"postDate":"2011-12-18 07:01:25","showImage":null,"showLogo":"http:\/\/www.8coupons.com\/partners\/logo\/small\/Citysearch.png","up":null,"down":null,"DealTypeID":null,"categoryID":"4","subcategoryID":"70","lat":"38.9056","lon":"-77.0507","distance":"0.290753499334524","dealOriginalPrice":null,"dealPrice":null,"dealSavings":"","dealDiscountPercent":null},
{"affiliate":"yes","name":"A1 ALL EMERGENCY LOCKSMITH","address":"2311 M st NW","address2":"","storeID":"2500241","chainID":null,"totalDealsInThisStore":"1","homepage":null,"phone":"877.740.7286","state":"DC","city":"Washington","ZIP":"20037","URL":"http:\/\/www.8coupons.com\/apiout\/showdeal\/deal\/7068349\/1698021\/aff","storeURL":"http:\/\/www.8coupons.com\/discounts\/a1-all-emergency-locksmith-washington-20037","dealSource":"citysearch.com","user":"Citysearch","userID":"64705","ID":"7068349","dealTitle":"FREE Junk Car Removal - We Pay Top Dollar for Your Junk Car\/Truck\/Bus!","disclaimer":"","dealinfo":"Mention this ad to receive the offer.","expirationDate":null,"postDate":"2011-12-18 07:01:25","showImage":null,"showLogo":"http:\/\/www.8coupons.com\/partners\/logo\/small\/Citysearch.png","up":null,"down":null,"DealTypeID":null,"categoryID":"4","subcategoryID":"70","lat":"38.9056","lon":"-77.0507","distance":"0.290753499334524","dealOriginalPrice":null,"dealPrice":null,"dealSavings":"","dealDiscountPercent":null},
{"affiliate":"yes","name":"A -LOCKSMITH","address":"2311 M St NW","address2":"","storeID":"2500255","chainID":null,"totalDealsInThisStore":"1","homepage":null,"phone":"877.413.8815","state":"DC","city":"Washington","ZIP":"20037","URL":"http:\/\/www.8coupons.com\/apiout\/showdeal\/deal\/7068419\/1698021\/aff","storeURL":"http:\/\/www.8coupons.com\/discounts\/a-locksmith-washington-20037","dealSource":"citysearch.com","user":"Citysearch","userID":"64705","ID":"7068419","dealTitle":"FREE Towing with Any Collision Repair at Our Shop!","disclaimer":"","dealinfo":"Mention this ad to receive the offer.","expirationDate":null,"postDate":"2011-12-18 07:01:39","showImage":null,"showLogo":"http:\/\/www.8coupons.com\/partners\/logo\/small\/Citysearch.png","up":null,"down":null,"DealTypeID":null,"categoryID":"4","subcategoryID":"70","lat":"38.9056","lon":"-77.0507","distance":"0.290753499334524","dealOriginalPrice":null,"dealPrice":null,"dealSavings":"","dealDiscountPercent":null},
{"affiliate":"yes","name":"24\/7 AUTO LOCK OUT & KEYS REPROGRAM","address":"2643 Virginia Ave NW","address2":"","storeID":"2500245","chainID":null,"totalDealsInThisStore":"1","homepage":null,"phone":"877.409.6213","state":"DC","city":"Washington","ZIP":"20037","URL":"http:\/\/www.8coupons.com\/apiout\/showdeal\/deal\/7068365\/1698021\/aff","storeURL":"http:\/\/www.8coupons.com\/discounts\/24-7-auto-lock-out-keys-reprogram-washington-20037","dealSource":"citysearch.com","user":"Citysearch","userID":"64705","ID":"7068365","dealTitle":"10% OFF Auto Computer Diagnostics for any Auto Repair","disclaimer":"","dealinfo":"Coupon required.","expirationDate":null,"postDate":"2011-12-18 07:01:32","showImage":null,"showLogo":"http:\/\/www.8coupons.com\/partners\/logo\/small\/Citysearch.png","up":null,"down":null,"DealTypeID":null,"categoryID":"4","subcategoryID":"70","lat":"38.9001","lon":"-77.0556","distance":"0.293839451121457","dealOriginalPrice":null,"dealPrice":null,"dealSavings":"","dealDiscountPercent":null},
{"affiliate":"yes","name":"24\/7 AUTO LOCK OUT & KEYS REPROGRAM","address":"2643 Virginia Ave NW","address2":"","storeID":"2500245","chainID":null,"totalDealsInThisStore":"1","homepage":null,"phone":"877.409.6213","state":"DC","city":"Washington","ZIP":"20037","URL":"http:\/\/www.8coupons.com\/apiout\/showdeal\/deal\/7068369\/1698021\/aff","storeURL":"http:\/\/www.8coupons.com\/discounts\/24-7-auto-lock-out-keys-reprogram-washington-20037","dealSource":"citysearch.com","user":"Citysearch","userID":"64705","ID":"7068369","dealTitle":"FREE Towing with Any Collision Repair at Our Shop!","disclaimer":"","dealinfo":"Mention this ad to receive the offer.","expirationDate":null,"postDate":"2011-12-18 07:01:32","showImage":null,"showLogo":"http:\/\/www.8coupons.com\/partners\/logo\/small\/Citysearch.png","up":null,"down":null,"DealTypeID":null,"categoryID":"4","subcategoryID":"70","lat":"38.9001","lon":"-77.0556","distance":"0.293839451121457","dealOriginalPrice":null,"dealPrice":null,"dealSavings":"","dealDiscountPercent":null},
{"affiliate":"yes","name":"A-A-ANY WHERE LOCKSMITH& KEYS MADE","address":"2150 M St NW","address2":"","storeID":"2500247","chainID":null,"totalDealsInThisStore":"1","homepage":null,"phone":"877.890.1813","state":"DC","city":"Washington","ZIP":"20037","URL":"http:\/\/www.8coupons.com\/apiout\/showdeal\/deal\/7068373\/1698021\/aff","storeURL":"http:\/\/www.8coupons.com\/discounts\/a-a-any-where-locksmith-keys-made-washington-20037","dealSource":"citysearch.com","user":"Citysearch","userID":"64705","ID":"7068373","dealTitle":"$29 Service Call for Any Locksmith Call","disclaimer":"","dealinfo":"Mention this ad to receive the offer.","expirationDate":null,"postDate":"2011-12-18 07:01:33","showImage":null,"showLogo":"http:\/\/www.8coupons.com\/partners\/logo\/small\/Citysearch.png","up":null,"down":null,"DealTypeID":null,"categoryID":"4","subcategoryID":"70","lat":"38.9053","lon":"-77.048","distance":"0.298878023174771","dealOriginalPrice":null,"dealPrice":null,"dealSavings":"","dealDiscountPercent":null},
{"affiliate":"yes","name":"A-A-ANY WHERE LOCKSMITH& KEYS MADE","address":"2150 M St NW","address2":"","storeID":"2500247","chainID":null,"totalDealsInThisStore":"1","homepage":null,"phone":"877.890.1813","state":"DC","city":"Washington","ZIP":"20037","URL":"http:\/\/www.8coupons.com\/apiout\/showdeal\/deal\/7068379\/1698021\/aff","storeURL":"http:\/\/www.8coupons.com\/discounts\/a-a-any-where-locksmith-keys-made-washington-20037","dealSource":"citysearch.com","user":"Citysearch","userID":"64705","ID":"7068379","dealTitle":"FREE Towing with Any Collision Repair at Our Shop!","disclaimer":"","dealinfo":"Mention this ad to receive the offer.","expirationDate":null,"postDate":"2011-12-18 07:01:33","showImage":null,"showLogo":"http:\/\/www.8coupons.com\/partners\/logo\/small\/Citysearch.png","up":null,"down":null,"DealTypeID":null,"categoryID":"4","subcategoryID":"70","lat":"38.9053","lon":"-77.048","distance":"0.298878023174771","dealOriginalPrice":null,"dealPrice":null,"dealSavings":"","dealDiscountPercent":null}]
